header: 
  seq: 2423
  stamp: 
    secs: 0
    nsecs: 0
  frame_id: ''
axes: [0.0, 0.0, 0.13455379009246826, 0.13455379009246826, 0.0, 0.0, 0.0, 0.0]
buttons: []
---
header: 
  seq: 2424
  stamp: 
    secs: 0
    nsecs: 0
  frame_id: ''
axes: [0.0, 0.0, 0.13455379009246826, 0.13455379009246826, 0.0, 0.0, 0.0, 0.0]
buttons: []
---
header: 
  seq: 2425
  stamp: 
    secs: 0
    nsecs: 0
  frame_id: ''
axes: [0.0, 0.0, 0.13456153869628906, 0.13456153869628906, 0.0, 0.0, 0.0, 0.0]
buttons: []
---
header: 
  seq: 2426
  stamp: 
    secs: 0
    nsecs: 0
  frame_id: ''
axes: [0.0, 0.0, 0.13456571102142334, 0.13456571102142334, 0.0, 0.0, 0.0, 0.0]
buttons: []
---
header: 
  seq: 2427
  stamp: 
    secs: 0
    nsecs: 0
  frame_id: ''
axes: [0.0, 0.0, 0.1345609426498413, 0.1345609426498413, 0.0, 0.0, 0.0, 0.0]
buttons: []
---
header: 
  seq: 2428
  stamp: 
    secs: 0
    nsecs: 0
  frame_id: ''
axes: [0.0, 0.0, 0.1345609426498413, 0.1345609426498413, 0.0, 0.0, 0.0, 0.0]
buttons: []
---
header: 
  seq: 2429
  stamp: 
    secs: 0
    nsecs: 0
  frame_id: ''
axes: [0.0, 0.0, 0.1345609426498413, 0.1345609426498413, 0.0, 0.0, 0.0, 0.0]
buttons: []
---
header: 
  seq: 2430
  stamp: 
    secs: 0
    nsecs: 0
  frame_id: ''
axes: [0.0, 0.0, 0.1345609426498413, 0.1345609426498413, 0.0, 0.0, 0.0, 0.0]
buttons: []
---
header: 
  seq: 2431
  stamp: 
    secs: 0
    nsecs: 0
  frame_id: ''
axes: [0.0, 0.0, 0.1345609426498413, 0.1345609426498413, 0.0, 0.0, 0.0, 0.0]
buttons: []
---
header: 
  seq: 2432
  stamp: 
    secs: 0
    nsecs: 0
  frame_id: ''
axes: [0.0, 0.0, 0.1345609426498413, 0.1345609426498413, 0.0, 0.0, 0.0, 0.0]
buttons: []
---
header: 
  seq: 2433
  stamp: 
    secs: 0
    nsecs: 0
  frame_id: ''
axes: [0.0, 0.0, 0.1345609426498413, 0.1345609426498413, 0.0, 0.0, 0.0, 0.0]
buttons: []
---
header: 
  seq: 2434
  stamp: 
    secs: 0
    nsecs: 0
  frame_id: ''
axes: [0.0, 0.0, 0.1345609426498413, 0.1345609426498413, 0.0, 0.0, 0.0, 0.0]
buttons: []
---
header: 
  seq: 2435
  stamp: 
    secs: 0
    nsecs: 0
  frame_id: ''
axes: [0.0, 0.0, 0.13456010818481445, 0.13456010818481445, 0.0, 0.0, 0.0, 0.0]
buttons: []
---
header: 
  seq: 2436
  stamp: 
    secs: 0
    nsecs: 0
  frame_id: ''
axes: [0.0, 0.0, 0.13455545902252197, 0.13455545902252197, 0.0, 0.0, 0.0, 0.0]
buttons: []
---
header: 
  seq: 2437
  stamp: 
    secs: 0
    nsecs: 0
  frame_id: ''
axes: [0.0, 0.0, 0.1345508098602295, 0.1345508098602295, 0.0, 0.0, 0.0, 0.0]
buttons: []
---
header: 
  seq: 2438
  stamp: 
    secs: 0
    nsecs: 0
  frame_id: ''
axes: [0.0, 0.0, 0.1345508098602295, 0.1345508098602295, 0.0, 0.0, 0.0, 0.0]
buttons: []
---
header: 
  seq: 2439
  stamp: 
    secs: 0
    nsecs: 0
  frame_id: ''
axes: [0.0, 0.0, 0.1345508098602295, 0.1345508098602295, 0.0, 0.0, 0.0, 0.0]
buttons: []
---
header: 
  seq: 2440
  stamp: 
    secs: 0
    nsecs: 0
  frame_id: ''
axes: [0.0, 0.0, 0.1345508098602295, 0.1345508098602295, 0.0, 0.0, 0.0, 0.0]
buttons: []
---
header: 
  seq: 2441
  stamp: 
    secs: 0
    nsecs: 0
  frame_id: ''
axes: [0.0, 0.0, 0.1345508098602295, 0.1345508098602295, 0.0, 0.0, 0.0, 0.0]
buttons: []
---
header: 
  seq: 2442
  stamp: 
    secs: 0
    nsecs: 0
  frame_id: ''
axes: [0.0, 0.0, 0.1345508098602295, 0.1345508098602295, 0.0, 0.0, 0.0, 0.0]
buttons: []
---
header: 
  seq: 2443
  stamp: 
    secs: 0
    nsecs: 0
  frame_id: ''
axes: [0.0, 0.0, 0.1345508098602295, 0.1345508098602295, 0.0, 0.0, 0.0, 0.0]
buttons: []
---
header: 
  seq: 2444
  stamp: 
    secs: 0
    nsecs: 0
  frame_id: ''
axes: [0.0, 0.0, 0.1345508098602295, 0.1345508098602295, 0.0, 0.0, 0.0, 0.0]
buttons: []
---
header: 
  seq: 2445
  stamp: 
    secs: 0
    nsecs: 0
  frame_id: ''
axes: [0.0, 0.0, 0.1345503330230713, 0.1345503330230713, 0.0, 0.0, 0.0, 0.0]
buttons: []
---
header: 
  seq: 2446
  stamp: 
    secs: 0
    nsecs: 0
  frame_id: ''
axes: [0.0, 0.0, 0.13455510139465332, 0.13455510139465332, 0.0, 0.0, 0.0, 0.0]
buttons: []
---
header: 
  seq: 2447
  stamp: 
    secs: 0
    nsecs: 0
  frame_id: ''
axes: [0.0, 0.0, 0.13456058502197266, 0.13456058502197266, 0.0, 0.0, 0.0, 0.0]
buttons: []
---
header: 
  seq: 2448
  stamp: 
    secs: 0
    nsecs: 0
  frame_id: ''
axes: [0.0, 0.0, 0.13455629348754883, 0.13455629348754883, 0.0, 0.0, 0.0, 0.0]
buttons: []
---
header: 
  seq: 2449
  stamp: 
    secs: 0
    nsecs: 0
  frame_id: ''
axes: [0.0, 0.0, 0.13455629348754883, 0.13455629348754883, 0.0, 0.0, 0.0, 0.0]
buttons: []
---
header: 
  seq: 2450
  stamp: 
    secs: 0
    nsecs: 0
  frame_id: ''
axes: [0.0, 0.0, 0.13455629348754883, 0.13455629348754883, 0.0, 0.0, 0.0, 0.0]
buttons: []
---
header: 
  seq: 2451
  stamp: 
    secs: 0
    nsecs: 0
  frame_id: ''
axes: [0.0, 0.0, 0.13455629348754883, 0.13455629348754883, 0.0, 0.0, 0.0, 0.0]
buttons: []
---
header: 
  seq: 2452
  stamp: 
    secs: 0
    nsecs: 0
  frame_id: ''
axes: [0.0, 0.0, 0.13455629348754883, 0.13455629348754883, 0.0, 0.0, 0.0, 0.0]
buttons: []
---
header: 
  seq: 2453
  stamp: 
    secs: 0
    nsecs: 0
  frame_id: ''
axes: [0.0, 0.0, 0.13455486297607422, 0.13455486297607422, 0.0, 0.0, 0.0, 0.0]
buttons: []
---
header: 
  seq: 2454
  stamp: 
    secs: 0
    nsecs: 0
  frame_id: ''
axes: [0.0, 0.0, 0.13455486297607422, 0.13455486297607422, 0.0, 0.0, 0.0, 0.0]
buttons: []
---
header: 
  seq: 2455
  stamp: 
    secs: 0
    nsecs: 0
  frame_id: ''
axes: [0.0, 0.0, 0.13455665111541748, 0.13455665111541748, 0.0, 0.0, 0.0, 0.0]
buttons: []
---
header: 
  seq: 2456
  stamp: 
    secs: 0
    nsecs: 0
  frame_id: ''
axes: [0.0, 0.0, 0.13455235958099365, 0.13455235958099365, 0.0, 0.0, 0.0, 0.0]
buttons: []
---
header: 
  seq: 2457
  stamp: 
    secs: 0
    nsecs: 0
  frame_id: ''
axes: [0.0, 0.0, 0.13454806804656982, 0.13454806804656982, 0.0, 0.0, 0.0, 0.0]
buttons: []
---
header: 
  seq: 2458
  stamp: 
    secs: 0
    nsecs: 0
  frame_id: ''
axes: [0.0, 0.0, 0.13454389572143555, 0.13454389572143555, 0.0, 0.0, 0.0, 0.0]
buttons: []
---
header: 
  seq: 2459
  stamp: 
    secs: 0
    nsecs: 0
  frame_id: ''
axes: [0.0, 0.0, 0.13454389572143555, 0.13454389572143555, 0.0, 0.0, 0.0, 0.0]
buttons: []
---
header: 
  seq: 2460
  stamp: 
    secs: 0
    nsecs: 0
  frame_id: ''
axes: [0.0, 0.0, 0.13454389572143555, 0.13454389572143555, 0.0, 0.0, 0.0, 0.0]
buttons: []
---
header: 
  seq: 2461
  stamp: 
    secs: 0
    nsecs: 0
  frame_id: ''
axes: [0.0, 0.0, 0.13454389572143555, 0.13454389572143555, 0.0, 0.0, 0.0, 0.0]
buttons: []
---
header: 
  seq: 2462
  stamp: 
    secs: 0
    nsecs: 0
  frame_id: ''
axes: [0.0, 0.0, 0.13454389572143555, 0.13454389572143555, 0.0, 0.0, 0.0, 0.0]
buttons: []
---
header: 
  seq: 2463
  stamp: 
    secs: 0
    nsecs: 0
  frame_id: ''
axes: [0.0, 0.0, 0.13454389572143555, 0.13454389572143555, 0.0, 0.0, 0.0, 0.0]
buttons: []
---
header: 
  seq: 2464
  stamp: 
    secs: 0
    nsecs: 0
  frame_id: ''
axes: [0.0, 0.0, 0.1345531940460205, 0.1345531940460205, 0.0, 0.0, 0.0, 0.0]
buttons: []
---
header: 
  seq: 2465
  stamp: 
    secs: 0
    nsecs: 0
  frame_id: ''
axes: [0.0, 0.0, 0.13454902172088623, 0.13454902172088623, 0.0, 0.0, 0.0, 0.0]
buttons: []
---
header: 
  seq: 2466
  stamp: 
    secs: 0
    nsecs: 0
  frame_id: ''
axes: [0.0, 0.0, 0.1345580816268921, 0.1345580816268921, 0.0, 0.0, 0.0, 0.0]
buttons: []
---
header: 
  seq: 2467
  stamp: 
    secs: 0
    nsecs: 0
  frame_id: ''
axes: [0.0, 0.0, 0.13455414772033691, 0.13455414772033691, 0.0, 0.0, 0.0, 0.0]
buttons: []
---
header: 
  seq: 2468
  stamp: 
    secs: 0
    nsecs: 0
  frame_id: ''
axes: [0.0, 0.0, 0.13455414772033691, 0.13455414772033691, 0.0, 0.0, 0.0, 0.0]
buttons: []
---
header: 
  seq: 2469
  stamp: 
    secs: 0
    nsecs: 0
  frame_id: ''
axes: [0.0, 0.0, 0.13455414772033691, 0.13455414772033691, 0.0, 0.0, 0.0, 0.0]
buttons: []
---
header: 
  seq: 2470
  stamp: 
    secs: 0
    nsecs: 0
  frame_id: ''
axes: [0.0, 0.0, 0.13455414772033691, 0.13455414772033691, 0.0, 0.0, 0.0, 0.0]
buttons: []
---
header: 
  seq: 2471
  stamp: 
    secs: 0
    nsecs: 0
  frame_id: ''
axes: [0.0, 0.0, 0.13455414772033691, 0.13455414772033691, 0.0, 0.0, 0.0, 0.0]
buttons: []
---
header: 
  seq: 2472
  stamp: 
    secs: 0
    nsecs: 0
  frame_id: ''
axes: [0.0, 0.0, 0.13455414772033691, 0.13455414772033691, 0.0, 0.0, 0.0, 0.0]
buttons: []
---
header: 
  seq: 2473
  stamp: 
    secs: 0
    nsecs: 0
  frame_id: ''
axes: [0.0, 0.0, 0.13455414772033691, 0.13455414772033691, 0.0, 0.0, 0.0, 0.0]
buttons: []
---
header: 
  seq: 2474
  stamp: 
    secs: 0
    nsecs: 0
  frame_id: ''
axes: [0.0, 0.0, 0.13455414772033691, 0.13455414772033691, 0.0, 0.0, 0.0, 0.0]
buttons: []
---
header: 
  seq: 2475
  stamp: 
    secs: 0
    nsecs: 0
  frame_id: ''
axes: [0.0, 0.0, 0.13455939292907715, 0.13455939292907715, 0.0, 0.0, 0.0, 0.0]
buttons: []
---
header: 
  seq: 2476
  stamp: 
    secs: 0
    nsecs: 0
  frame_id: ''
axes: [0.0, 0.0, 0.13455545902252197, 0.13455545902252197, 0.0, 0.0, 0.0, 0.0]
buttons: []
---
header: 
  seq: 2477
  stamp: 
    secs: 0
    nsecs: 0
  frame_id: ''
axes: [0.0, 0.0, 0.13455164432525635, 0.13455164432525635, 0.0, 0.0, 0.0, 0.0]
buttons: []
---
header: 
  seq: 2478
  stamp: 
    secs: 0
    nsecs: 0
  frame_id: ''
axes: [0.0, 0.0, 0.13455164432525635, 0.13455164432525635, 0.0, 0.0, 0.0, 0.0]
buttons: []
---
header: 
  seq: 2479
  stamp: 
    secs: 0
    nsecs: 0
  frame_id: ''
axes: [0.0, 0.0, 0.13455164432525635, 0.13455164432525635, 0.0, 0.0, 0.0, 0.0]
buttons: []
---
header: 
  seq: 2480
  stamp: 
    secs: 0
    nsecs: 0
  frame_id: ''
axes: [0.0, 0.0, 0.13455164432525635, 0.13455164432525635, 0.0, 0.0, 0.0, 0.0]
buttons: []
---
header: 
  seq: 2481
  stamp: 
    secs: 0
    nsecs: 0
  frame_id: ''
axes: [0.0, 0.0, 0.13455164432525635, 0.13455164432525635, 0.0, 0.0, 0.0, 0.0]
buttons: []
---
header: 
  seq: 2482
  stamp: 
    secs: 0
    nsecs: 0
  frame_id: ''
axes: [0.0, 0.0, 0.13455164432525635, 0.13455164432525635, 0.0, 0.0, 0.0, 0.0]
buttons: []
---
header: 
  seq: 2483
  stamp: 
    secs: 0
    nsecs: 0
  frame_id: ''
axes: [0.0, 0.0, 0.13455164432525635, 0.13455164432525635, 0.0, 0.0, 0.0, 0.0]
buttons: []
---
header: 
  seq: 2484
  stamp: 
    secs: 0
    nsecs: 0
  frame_id: ''
axes: [0.0, 0.0, 0.13455629348754883, 0.13455629348754883, 0.0, 0.0, 0.0, 0.0]
buttons: []
---
header: 
  seq: 2485
  stamp: 
    secs: 0
    nsecs: 0
  frame_id: ''
axes: [0.0, 0.0, 0.13455259799957275, 0.13455259799957275, 0.0, 0.0, 0.0, 0.0]
buttons: []
---
header: 
  seq: 2486
  stamp: 
    secs: 0
    nsecs: 0
  frame_id: ''
axes: [0.0, 0.0, 0.13454878330230713, 0.13454878330230713, 0.0, 0.0, 0.0, 0.0]
buttons: []
---
header: 
  seq: 2487
  stamp: 
    secs: 0
    nsecs: 0
  frame_id: ''
axes: [0.0, 0.0, 0.13455235958099365, 0.13455235958099365, 0.0, 0.0, 0.0, 0.0]
buttons: []
---
header: 
  seq: 2488
  stamp: 
    secs: 0
    nsecs: 0
  frame_id: ''
axes: [0.0, 0.0, 0.13455235958099365, 0.13455235958099365, 0.0, 0.0, 0.0, 0.0]
buttons: []
---
header: 
  seq: 2489
  stamp: 
    secs: 0
    nsecs: 0
  frame_id: ''
axes: [0.0, 0.0, 0.13455235958099365, 0.13455235958099365, 0.0, 0.0, 0.0, 0.0]
buttons: []
---
header: 
  seq: 2490
  stamp: 
    secs: 0
    nsecs: 0
  frame_id: ''
axes: [0.0, 0.0, 0.13455235958099365, 0.13455235958099365, 0.0, 0.0, 0.0, 0.0]
buttons: []
---
header: 
  seq: 2491
  stamp: 
    secs: 0
    nsecs: 0
  frame_id: ''
axes: [0.0, 0.0, 0.13455235958099365, 0.13455235958099365, 0.0, 0.0, 0.0, 0.0]
buttons: []
---
header: 
  seq: 2492
  stamp: 
    secs: 0
    nsecs: 0
  frame_id: ''
axes: [0.0, 0.0, 0.13455235958099365, 0.13455235958099365, 0.0, 0.0, 0.0, 0.0]
buttons: []
---
header: 
  seq: 2493
  stamp: 
    secs: 0
    nsecs: 0
  frame_id: ''
axes: [0.0, 0.0, 0.13455235958099365, 0.13455235958099365, 0.0, 0.0, 0.0, 0.0]
buttons: []
---
header: 
  seq: 2494
  stamp: 
    secs: 0
    nsecs: 0
  frame_id: ''
axes: [0.0, 0.0, 0.13455235958099365, 0.13455235958099365, 0.0, 0.0, 0.0, 0.0]
buttons: []
---
header: 
  seq: 2495
  stamp: 
    secs: 0
    nsecs: 0
  frame_id: ''
axes: [0.0, 0.0, 0.13455843925476074, 0.13455843925476074, 0.0, 0.0, 0.0, 0.0]
buttons: []
---
header: 
  seq: 2496
  stamp: 
    secs: 0
    nsecs: 0
  frame_id: ''
axes: [0.0, 0.0, 0.13455474376678467, 0.13455474376678467, 0.0, 0.0, 0.0, 0.0]
buttons: []
---
header: 
  seq: 2497
  stamp: 
    secs: 0
    nsecs: 0
  frame_id: ''
axes: [0.0, 0.0, 0.1345512866973877, 0.1345512866973877, 0.0, 0.0, 0.0, 0.0]
buttons: []
---
header: 
  seq: 2498
  stamp: 
    secs: 0
    nsecs: 0
  frame_id: ''
axes: [0.0, 0.0, 0.1345512866973877, 0.1345512866973877, 0.0, 0.0, 0.0, 0.0]
buttons: []
---
header: 
  seq: 2499
  stamp: 
    secs: 0
    nsecs: 0
  frame_id: ''
axes: [0.0, 0.0, 0.1345512866973877, 0.1345512866973877, 0.0, 0.0, 0.0, 0.0]
buttons: []
---
header: 
  seq: 2500
  stamp: 
    secs: 0
    nsecs: 0
  frame_id: ''
axes: [0.0, 0.0, 0.1345512866973877, 0.1345512866973877, 0.0, 0.0, 0.0, 0.0]
buttons: []
---
header: 
  seq: 2501
  stamp: 
    secs: 0
    nsecs: 0
  frame_id: ''
axes: [0.0, 0.0, 0.1345512866973877, 0.1345512866973877, 0.0, 0.0, 0.0, 0.0]
buttons: []
---
header: 
  seq: 2502
  stamp: 
    secs: 0
    nsecs: 0
  frame_id: ''
axes: [0.0, 0.0, 0.1345512866973877, 0.1345512866973877, 0.0, 0.0, 0.0, 0.0]
buttons: []
---
header: 
  seq: 2503
  stamp: 
    secs: 0
    nsecs: 0
  frame_id: ''
axes: [0.0, 0.0, 0.1345512866973877, 0.1345512866973877, 0.0, 0.0, 0.0, 0.0]
buttons: []
---
header: 
  seq: 2504
  stamp: 
    secs: 0
    nsecs: 0
  frame_id: ''
axes: [0.0, 0.0, 0.13455605506896973, 0.13455605506896973, 0.0, 0.0, 0.0, 0.0]
buttons: []
---
header: 
  seq: 2505
  stamp: 
    secs: 0
    nsecs: 0
  frame_id: ''
axes: [0.0, 0.0, 0.13455605506896973, 0.13455605506896973, 0.0, 0.0, 0.0, 0.0]
buttons: []
---
header: 
  seq: 2506
  stamp: 
    secs: 0
    nsecs: 0
  frame_id: ''
axes: [0.0, 0.0, 0.1345527172088623, 0.1345527172088623, 0.0, 0.0, 0.0, 0.0]
buttons: []
---
header: 
  seq: 2507
  stamp: 
    secs: 0
    nsecs: 0
  frame_id: ''
axes: [0.0, 0.0, 0.13455605506896973, 0.13455605506896973, 0.0, 0.0, 0.0, 0.0]
buttons: []
---
header: 
  seq: 2508
  stamp: 
    secs: 0
    nsecs: 0
  frame_id: ''
axes: [0.0, 0.0, 0.13455283641815186, 0.13455283641815186, 0.0, 0.0, 0.0, 0.0]
buttons: []
---
header: 
  seq: 2509
  stamp: 
    secs: 0
    nsecs: 0
  frame_id: ''
axes: [0.0, 0.0, 0.13455283641815186, 0.13455283641815186, 0.0, 0.0, 0.0, 0.0]
buttons: []
---
header: 
  seq: 2510
  stamp: 
    secs: 0
    nsecs: 0
  frame_id: ''
axes: [0.0, 0.0, 0.13455283641815186, 0.13455283641815186, 0.0, 0.0, 0.0, 0.0]
buttons: []
---
header: 
  seq: 2511
  stamp: 
    secs: 0
    nsecs: 0
  frame_id: ''
axes: [0.0, 0.0, 0.13455283641815186, 0.13455283641815186, 0.0, 0.0, 0.0, 0.0]
buttons: []
---
header: 
  seq: 2512
  stamp: 
    secs: 0
    nsecs: 0
  frame_id: ''
axes: [0.0, 0.0, 0.13455283641815186, 0.13455283641815186, 0.0, 0.0, 0.0, 0.0]
buttons: []
---
header: 
  seq: 2513
  stamp: 
    secs: 0
    nsecs: 0
  frame_id: ''
axes: [0.0, 0.0, 0.13455283641815186, 0.13455283641815186, 0.0, 0.0, 0.0, 0.0]
buttons: []
---
header: 
  seq: 2514
  stamp: 
    secs: 0
    nsecs: 0
  frame_id: ''
axes: [0.0, 0.0, 0.13455581665039062, 0.13455581665039062, 0.0, 0.0, 0.0, 0.0]
buttons: []
---
header: 
  seq: 2515
  stamp: 
    secs: 0
    nsecs: 0
  frame_id: ''
axes: [0.0, 0.0, 0.1345527172088623, 0.1345527172088623, 0.0, 0.0, 0.0, 0.0]
buttons: []
---
header: 
  seq: 2516
  stamp: 
    secs: 0
    nsecs: 0
  frame_id: ''
axes: [0.0, 0.0, 0.13454937934875488, 0.13454937934875488, 0.0, 0.0, 0.0, 0.0]
buttons: []
---
header: 
  seq: 2517
  stamp: 
    secs: 0
    nsecs: 0
  frame_id: ''
axes: [0.0, 0.0, 0.134546160697937, 0.134546160697937, 0.0, 0.0, 0.0, 0.0]
buttons: []
---
header: 
  seq: 2518
  stamp: 
    secs: 0
    nsecs: 0
  frame_id: ''
axes: [0.0, 0.0, 0.134546160697937, 0.134546160697937, 0.0, 0.0, 0.0, 0.0]
buttons: []
---
header: 
  seq: 2519
  stamp: 
    secs: 0
    nsecs: 0
  frame_id: ''
axes: [0.0, 0.0, 0.134546160697937, 0.134546160697937, 0.0, 0.0, 0.0, 0.0]
buttons: []
---
header: 
  seq: 2520
  stamp: 
    secs: 0
    nsecs: 0
  frame_id: ''
axes: [0.0, 0.0, 0.134546160697937, 0.134546160697937, 0.0, 0.0, 0.0, 0.0]
buttons: []
---
header: 
  seq: 2521
  stamp: 
    secs: 0
    nsecs: 0
  frame_id: ''
axes: [0.0, 0.0, 0.134546160697937, 0.134546160697937, 0.0, 0.0, 0.0, 0.0]
buttons: []
---
header: 
  seq: 2522
  stamp: 
    secs: 0
    nsecs: 0
  frame_id: ''
axes: [0.0, 0.0, 0.134546160697937, 0.134546160697937, 0.0, 0.0, 0.0, 0.0]
buttons: []
---
header: 
  seq: 2523
  stamp: 
    secs: 0
    nsecs: 0
  frame_id: ''
axes: [0.0, 0.0, 0.134546160697937, 0.134546160697937, 0.0, 0.0, 0.0, 0.0]
buttons: []
---
header: 
  seq: 2524
  stamp: 
    secs: 0
    nsecs: 0
  frame_id: ''
axes: [0.0, 0.0, 0.134546160697937, 0.134546160697937, 0.0, 0.0, 0.0, 0.0]
buttons: []
---
header: 
  seq: 2525
  stamp: 
    secs: 0
    nsecs: 0
  frame_id: ''
axes: [0.0, 0.0, 0.134546160697937, 0.134546160697937, 0.0, 0.0, 0.0, 0.0]
buttons: []
---
header: 
  seq: 2526
  stamp: 
    secs: 0
    nsecs: 0
  frame_id: ''
axes: [0.0, 0.0, 0.134546160697937, 0.134546160697937, 0.0, 0.0, 0.0, 0.0]
buttons: []
---
header: 
  seq: 2527
  stamp: 
    secs: 0
    nsecs: 0
  frame_id: ''
axes: [0.0, 0.0, 0.13456296920776367, 0.13456296920776367, 0.0, 0.0, 0.0, 0.0]
buttons: []
---
header: 
  seq: 2528
  stamp: 
    secs: 0
    nsecs: 0
  frame_id: ''
axes: [0.0, 0.0, 0.13455986976623535, 0.13455986976623535, 0.0, 0.0, 0.0, 0.0]
buttons: []
---
header: 
  seq: 2529
  stamp: 
    secs: 0
    nsecs: 0
  frame_id: ''
axes: [0.0, 0.0, 0.13455986976623535, 0.13455986976623535, 0.0, 0.0, 0.0, 0.0]
buttons: []
---
header: 
  seq: 2530
  stamp: 
    secs: 0
    nsecs: 0
  frame_id: ''
axes: [0.0, 0.0, 0.13455986976623535, 0.13455986976623535, 0.0, 0.0, 0.0, 0.0]
buttons: []
---
header: 
  seq: 2531
  stamp: 
    secs: 0
    nsecs: 0
  frame_id: ''
axes: [0.0, 0.0, 0.13455986976623535, 0.13455986976623535, 0.0, 0.0, 0.0, 0.0]
buttons: []
---
header: 
  seq: 2532
  stamp: 
    secs: 0
    nsecs: 0
  frame_id: ''
axes: [0.0, 0.0, 0.13455986976623535, 0.13455986976623535, 0.0, 0.0, 0.0, 0.0]
buttons: []
---
header: 
  seq: 2533
  stamp: 
    secs: 0
    nsecs: 0
  frame_id: ''
axes: [0.0, 0.0, 0.13455986976623535, 0.13455986976623535, 0.0, 0.0, 0.0, 0.0]
buttons: []
---
header: 
  seq: 2534
  stamp: 
    secs: 0
    nsecs: 0
  frame_id: ''
axes: [0.0, 0.0, 0.13455986976623535, 0.13455986976623535, 0.0, 0.0, 0.0, 0.0]
buttons: []
---
header: 
  seq: 2535
  stamp: 
    secs: 0
    nsecs: 0
  frame_id: ''
axes: [0.0, 0.0, 0.13456058502197266, 0.13456058502197266, 0.0, 0.0, 0.0, 0.0]
buttons: []
---
header: 
  seq: 2536
  stamp: 
    secs: 0
    nsecs: 0
  frame_id: ''
axes: [0.0, 0.0, 0.13455772399902344, 0.13455772399902344, 0.0, 0.0, 0.0, 0.0]
buttons: []
---
header: 
  seq: 2537
  stamp: 
    secs: 0
    nsecs: 0
  frame_id: ''
axes: [0.0, 0.0, 0.13455474376678467, 0.13455474376678467, 0.0, 0.0, 0.0, 0.0]
buttons: []
---
header: 
  seq: 2538
  stamp: 
    secs: 0
    nsecs: 0
  frame_id: ''
axes: [0.0, 0.0, 0.13455474376678467, 0.13455474376678467, 0.0, 0.0, 0.0, 0.0]
buttons: []
---
header: 
  seq: 2539
  stamp: 
    secs: 0
    nsecs: 0
  frame_id: ''
axes: [0.0, 0.0, 0.13455474376678467, 0.13455474376678467, 0.0, 0.0, 0.0, 0.0]
buttons: []
---
header: 
  seq: 2540
  stamp: 
    secs: 0
    nsecs: 0
  frame_id: ''
axes: [0.0, 0.0, 0.13455474376678467, 0.13455474376678467, 0.0, 0.0, 0.0, 0.0]
buttons: []
---
header: 
  seq: 2541
  stamp: 
    secs: 0
    nsecs: 0
  frame_id: ''
axes: [0.0, 0.0, 0.13455474376678467, 0.13455474376678467, 0.0, 0.0, 0.0, 0.0]
buttons: []
---
header: 
  seq: 2542
  stamp: 
    secs: 0
    nsecs: 0
  frame_id: ''
axes: [0.0, 0.0, 0.13455474376678467, 0.13455474376678467, 0.0, 0.0, 0.0, 0.0]
buttons: []
---
header: 
  seq: 2543
  stamp: 
    secs: 0
    nsecs: 0
  frame_id: ''
axes: [0.0, 0.0, 0.13455474376678467, 0.13455474376678467, 0.0, 0.0, 0.0, 0.0]
buttons: []
---
header: 
  seq: 2544
  stamp: 
    secs: 0
    nsecs: 0
  frame_id: ''
axes: [0.0, 0.0, 0.13455474376678467, 0.13455474376678467, 0.0, 0.0, 0.0, 0.0]
buttons: []
---
header: 
  seq: 2545
  stamp: 
    secs: 0
    nsecs: 0
  frame_id: ''
axes: [0.0, 0.0, 0.13455474376678467, 0.13455474376678467, 0.0, 0.0, 0.0, 0.0]
buttons: []
---
header: 
  seq: 2546
  stamp: 
    secs: 0
    nsecs: 0
  frame_id: ''
axes: [0.0, 0.0, 0.13455545902252197, 0.13455545902252197, 0.0, 0.0, 0.0, 0.0]
buttons: []
---
header: 
  seq: 2547
  stamp: 
    secs: 0
    nsecs: 0
  frame_id: ''
axes: [0.0, 0.0, 0.13455259799957275, 0.13455259799957275, 0.0, 0.0, 0.0, 0.0]
buttons: []
---
header: 
  seq: 2548
  stamp: 
    secs: 0
    nsecs: 0
  frame_id: ''
axes: [0.0, 0.0, 0.13455259799957275, 0.13455259799957275, 0.0, 0.0, 0.0, 0.0]
buttons: []
---
header: 
  seq: 2549
  stamp: 
    secs: 0
    nsecs: 0
  frame_id: ''
axes: [0.0, 0.0, 0.13455259799957275, 0.13455259799957275, 0.0, 0.0, 0.0, 0.0]
buttons: []
---
header: 
  seq: 2550
  stamp: 
    secs: 0
    nsecs: 0
  frame_id: ''
axes: [0.0, 0.0, 0.13455259799957275, 0.13455259799957275, 0.0, 0.0, 0.0, 0.0]
buttons: []
---
header: 
  seq: 2551
  stamp: 
    secs: 0
    nsecs: 0
  frame_id: ''
axes: [0.0, 0.0, 0.13455259799957275, 0.13455259799957275, 0.0, 0.0, 0.0, 0.0]
buttons: []
---
header: 
  seq: 2552
  stamp: 
    secs: 0
    nsecs: 0
  frame_id: ''
axes: [0.0, 0.0, 0.13455259799957275, 0.13455259799957275, 0.0, 0.0, 0.0, 0.0]
buttons: []
---
header: 
  seq: 2553
  stamp: 
    secs: 0
    nsecs: 0
  frame_id: ''
axes: [0.0, 0.0, 0.13455259799957275, 0.13455259799957275, 0.0, 0.0, 0.0, 0.0]
buttons: []
---
header: 
  seq: 2554
  stamp: 
    secs: 0
    nsecs: 0
  frame_id: ''
axes: [0.0, 0.0, 0.13455045223236084, 0.13455045223236084, 0.0, 0.0, 0.0, 0.0]
buttons: []
---
header: 
  seq: 2555
  stamp: 
    secs: 0
    nsecs: 0
  frame_id: ''
axes: [0.0, 0.0, 0.13455212116241455, 0.13455212116241455, 0.0, 0.0, 0.0, 0.0]
buttons: []
---
header: 
  seq: 2556
  stamp: 
    secs: 0
    nsecs: 0
  frame_id: ''
axes: [0.0, 0.0, 0.13454937934875488, 0.13454937934875488, 0.0, 0.0, 0.0, 0.0]
buttons: []
---
header: 
  seq: 2557
  stamp: 
    secs: 0
    nsecs: 0
  frame_id: ''
axes: [0.0, 0.0, 0.13454651832580566, 0.13454651832580566, 0.0, 0.0, 0.0, 0.0]
buttons: []
---
header: 
  seq: 2558
  stamp: 
    secs: 0
    nsecs: 0
  frame_id: ''
axes: [0.0, 0.0, 0.13454651832580566, 0.13454651832580566, 0.0, 0.0, 0.0, 0.0]
buttons: []
---
header: 
  seq: 2559
  stamp: 
    secs: 0
    nsecs: 0
  frame_id: ''
axes: [0.0, 0.0, 0.13454651832580566, 0.13454651832580566, 0.0, 0.0, 0.0, 0.0]
buttons: []
---
header: 
  seq: 2560
  stamp: 
    secs: 0
    nsecs: 0
  frame_id: ''
axes: [0.0, 0.0, 0.13454651832580566, 0.13454651832580566, 0.0, 0.0, 0.0, 0.0]
buttons: []
---
header: 
  seq: 2561
  stamp: 
    secs: 0
    nsecs: 0
  frame_id: ''
axes: [0.0, 0.0, 0.13454651832580566, 0.13454651832580566, 0.0, 0.0, 0.0, 0.0]
buttons: []
---
header: 
  seq: 2562
  stamp: 
    secs: 0
    nsecs: 0
  frame_id: ''
axes: [0.0, 0.0, 0.13454651832580566, 0.13454651832580566, 0.0, 0.0, 0.0, 0.0]
buttons: []
---
header: 
  seq: 2563
  stamp: 
    secs: 0
    nsecs: 0
  frame_id: ''
axes: [0.0, 0.0, 0.13454651832580566, 0.13454651832580566, 0.0, 0.0, 0.0, 0.0]
buttons: []
---
header: 
  seq: 2564
  stamp: 
    secs: 0
    nsecs: 0
  frame_id: ''
axes: [0.0, 0.0, 0.13454651832580566, 0.13454651832580566, 0.0, 0.0, 0.0, 0.0]
buttons: []
---
header: 
  seq: 2565
  stamp: 
    secs: 0
    nsecs: 0
  frame_id: ''
axes: [0.0, 0.0, 0.13454651832580566, 0.13454651832580566, 0.0, 0.0, 0.0, 0.0]
buttons: []
---
header: 
  seq: 2566
  stamp: 
    secs: 0
    nsecs: 0
  frame_id: ''
axes: [0.0, 0.0, 0.13454651832580566, 0.13454651832580566, 0.0, 0.0, 0.0, 0.0]
buttons: []
---
header: 
  seq: 2567
  stamp: 
    secs: 0
    nsecs: 0
  frame_id: ''
axes: [0.0, 0.0, 0.13456130027770996, 0.13456130027770996, 0.0, 0.0, 0.0, 0.0]
buttons: []
---
header: 
  seq: 2568
  stamp: 
    secs: 0
    nsecs: 0
  frame_id: ''
axes: [0.0, 0.0, 0.13456130027770996, 0.13456130027770996, 0.0, 0.0, 0.0, 0.0]
buttons: []
---
header: 
  seq: 2569
  stamp: 
    secs: 0
    nsecs: 0
  frame_id: ''
axes: [0.0, 0.0, 0.13456130027770996, 0.13456130027770996, 0.0, 0.0, 0.0, 0.0]
buttons: []
---
header: 
  seq: 2570
  stamp: 
    secs: 0
    nsecs: 0
  frame_id: ''
axes: [0.0, 0.0, 0.13456130027770996, 0.13456130027770996, 0.0, 0.0, 0.0, 0.0]
buttons: []
---
header: 
  seq: 2571
  stamp: 
    secs: 0
    nsecs: 0
  frame_id: ''
axes: [0.0, 0.0, 0.13456130027770996, 0.13456130027770996, 0.0, 0.0, 0.0, 0.0]
buttons: []
---
header: 
  seq: 2572
  stamp: 
    secs: 0
    nsecs: 0
  frame_id: ''
axes: [0.0, 0.0, 0.13456130027770996, 0.13456130027770996, 0.0, 0.0, 0.0, 0.0]
buttons: []
---
header: 
  seq: 2573
  stamp: 
    secs: 0
    nsecs: 0
  frame_id: ''
axes: [0.0, 0.0, 0.13456130027770996, 0.13456130027770996, 0.0, 0.0, 0.0, 0.0]
buttons: []
---
header: 
  seq: 2574
  stamp: 
    secs: 0
    nsecs: 0
  frame_id: ''
axes: [0.0, 0.0, 0.13456153869628906, 0.13456153869628906, 0.0, 0.0, 0.0, 0.0]
buttons: []
---
header: 
  seq: 2575
  stamp: 
    secs: 0
    nsecs: 0
  frame_id: ''
axes: [0.0, 0.0, 0.13455724716186523, 0.13455724716186523, 0.0, 0.0, 0.0, 0.0]
buttons: []
---
header: 
  seq: 2576
  stamp: 
    secs: 0
    nsecs: 0
  frame_id: ''
axes: [0.0, 0.0, 0.13455474376678467, 0.13455474376678467, 0.0, 0.0, 0.0, 0.0]
buttons: []
---
header: 
  seq: 2577
  stamp: 
    secs: 0
    nsecs: 0
  frame_id: ''
axes: [0.0, 0.0, 0.13455212116241455, 0.13455212116241455, 0.0, 0.0, 0.0, 0.0]
buttons: []
---
header: 
  seq: 2578
  stamp: 
    secs: 0
    nsecs: 0
  frame_id: ''
axes: [0.0, 0.0, 0.13454961776733398, 0.13454961776733398, 0.0, 0.0, 0.0, 0.0]
buttons: []
---
header: 
  seq: 2579
  stamp: 
    secs: 0
    nsecs: 0
  frame_id: ''
axes: [0.0, 0.0, 0.13454961776733398, 0.13454961776733398, 0.0, 0.0, 0.0, 0.0]
buttons: []
---
header: 
  seq: 2580
  stamp: 
    secs: 0
    nsecs: 0
  frame_id: ''
axes: [0.0, 0.0, 0.13454961776733398, 0.13454961776733398, 0.0, 0.0, 0.0, 0.0]
buttons: []
---
header: 
  seq: 2581
  stamp: 
    secs: 0
    nsecs: 0
  frame_id: ''
axes: [0.0, 0.0, 0.13454961776733398, 0.13454961776733398, 0.0, 0.0, 0.0, 0.0]
buttons: []
---
header: 
  seq: 2582
  stamp: 
    secs: 0
    nsecs: 0
  frame_id: ''
axes: [0.0, 0.0, 0.13454961776733398, 0.13454961776733398, 0.0, 0.0, 0.0, 0.0]
buttons: []
---
header: 
  seq: 2583
  stamp: 
    secs: 0
    nsecs: 0
  frame_id: ''
axes: [0.0, 0.0, 0.13454961776733398, 0.13454961776733398, 0.0, 0.0, 0.0, 0.0]
buttons: []
---
header: 
  seq: 2584
  stamp: 
    secs: 0
    nsecs: 0
  frame_id: ''
axes: [0.0, 0.0, 0.13454961776733398, 0.13454961776733398, 0.0, 0.0, 0.0, 0.0]
buttons: []
---
header: 
  seq: 2585
  stamp: 
    secs: 0
    nsecs: 0
  frame_id: ''
axes: [0.0, 0.0, 0.13454961776733398, 0.13454961776733398, 0.0, 0.0, 0.0, 0.0]
buttons: []
---
header: 
  seq: 2586
  stamp: 
    secs: 0
    nsecs: 0
  frame_id: ''
axes: [0.0, 0.0, 0.13454961776733398, 0.13454961776733398, 0.0, 0.0, 0.0, 0.0]
buttons: []
---
header: 
  seq: 2587
  stamp: 
    secs: 0
    nsecs: 0
  frame_id: ''
axes: [0.0, 0.0, 0.1345534324645996, 0.1345534324645996, 0.0, 0.0, 0.0, 0.0]
buttons: []
---
header: 
  seq: 2588
  stamp: 
    secs: 0
    nsecs: 0
  frame_id: ''
axes: [0.0, 0.0, 0.1345534324645996, 0.1345534324645996, 0.0, 0.0, 0.0, 0.0]
buttons: []
---
header: 
  seq: 2589
  stamp: 
    secs: 0
    nsecs: 0
  frame_id: ''
axes: [0.0, 0.0, 0.1345534324645996, 0.1345534324645996, 0.0, 0.0, 0.0, 0.0]
buttons: []
---
header: 
  seq: 2590
  stamp: 
    secs: 0
    nsecs: 0
  frame_id: ''
axes: [0.0, 0.0, 0.1345534324645996, 0.1345534324645996, 0.0, 0.0, 0.0, 0.0]
buttons: []
---
header: 
  seq: 2591
  stamp: 
    secs: 0
    nsecs: 0
  frame_id: ''
axes: [0.0, 0.0, 0.1345534324645996, 0.1345534324645996, 0.0, 0.0, 0.0, 0.0]
buttons: []
---
header: 
  seq: 2592
  stamp: 
    secs: 0
    nsecs: 0
  frame_id: ''
axes: [0.0, 0.0, 0.1345534324645996, 0.1345534324645996, 0.0, 0.0, 0.0, 0.0]
buttons: []
---
header: 
  seq: 2593
  stamp: 
    secs: 0
    nsecs: 0
  frame_id: ''
axes: [0.0, 0.0, 0.1345534324645996, 0.1345534324645996, 0.0, 0.0, 0.0, 0.0]
buttons: []
---
header: 
  seq: 2594
  stamp: 
    secs: 0
    nsecs: 0
  frame_id: ''
axes: [0.0, 0.0, 0.13455629348754883, 0.13455629348754883, 0.0, 0.0, 0.0, 0.0]
buttons: []
---
header: 
  seq: 2595
  stamp: 
    secs: 0
    nsecs: 0
  frame_id: ''
axes: [0.0, 0.0, 0.1345539093017578, 0.1345539093017578, 0.0, 0.0, 0.0, 0.0]
buttons: []
---
header: 
  seq: 2596
  stamp: 
    secs: 0
    nsecs: 0
  frame_id: ''
axes: [0.0, 0.0, 0.13455164432525635, 0.13455164432525635, 0.0, 0.0, 0.0, 0.0]
buttons: []
---
header: 
  seq: 2597
  stamp: 
    secs: 0
    nsecs: 0
  frame_id: ''
axes: [0.0, 0.0, 0.13454914093017578, 0.13454914093017578, 0.0, 0.0, 0.0, 0.0]
buttons: []
---
header: 
  seq: 2598
  stamp: 
    secs: 0
    nsecs: 0
  frame_id: ''
axes: [0.0, 0.0, 0.13454914093017578, 0.13454914093017578, 0.0, 0.0, 0.0, 0.0]
buttons: []
---
header: 
  seq: 2599
  stamp: 
    secs: 0
    nsecs: 0
  frame_id: ''
axes: [0.0, 0.0, 0.13454914093017578, 0.13454914093017578, 0.0, 0.0, 0.0, 0.0]
buttons: []
---
header: 
  seq: 2600
  stamp: 
    secs: 0
    nsecs: 0
  frame_id: ''
axes: [0.0, 0.0, 0.13454914093017578, 0.13454914093017578, 0.0, 0.0, 0.0, 0.0]
buttons: []
---
header: 
  seq: 2601
  stamp: 
    secs: 0
    nsecs: 0
  frame_id: ''
axes: [0.0, 0.0, 0.13454914093017578, 0.13454914093017578, 0.0, 0.0, 0.0, 0.0]
buttons: []
---
header: 
  seq: 2602
  stamp: 
    secs: 0
    nsecs: 0
  frame_id: ''
axes: [0.0, 0.0, 0.13454914093017578, 0.13454914093017578, 0.0, 0.0, 0.0, 0.0]
buttons: []
---
header: 
  seq: 2603
  stamp: 
    secs: 0
    nsecs: 0
  frame_id: ''
axes: [0.0, 0.0, 0.13454914093017578, 0.13454914093017578, 0.0, 0.0, 0.0, 0.0]
buttons: []
---
header: 
  seq: 2604
  stamp: 
    secs: 0
    nsecs: 0
  frame_id: ''
axes: [0.0, 0.0, 0.13454914093017578, 0.13454914093017578, 0.0, 0.0, 0.0, 0.0]
buttons: []
---
header: 
  seq: 2605
  stamp: 
    secs: 0
    nsecs: 0
  frame_id: ''
axes: [0.0, 0.0, 0.13454914093017578, 0.13454914093017578, 0.0, 0.0, 0.0, 0.0]
buttons: []
---
header: 
  seq: 2606
  stamp: 
    secs: 0
    nsecs: 0
  frame_id: ''
axes: [0.0, 0.0, 0.13454914093017578, 0.13454914093017578, 0.0, 0.0, 0.0, 0.0]
buttons: []
---
header: 
  seq: 2607
  stamp: 
    secs: 0
    nsecs: 0
  frame_id: ''
axes: [0.0, 0.0, 0.13455736637115479, 0.13455736637115479, 0.0, 0.0, 0.0, 0.0]
buttons: []
---
header: 
  seq: 2608
  stamp: 
    secs: 0
    nsecs: 0
  frame_id: ''
axes: [0.0, 0.0, 0.13455736637115479, 0.13455736637115479, 0.0, 0.0, 0.0, 0.0]
buttons: []
---
header: 
  seq: 2609
  stamp: 
    secs: 0
    nsecs: 0
  frame_id: ''
axes: [0.0, 0.0, 0.13455736637115479, 0.13455736637115479, 0.0, 0.0, 0.0, 0.0]
buttons: []
---
header: 
  seq: 2610
  stamp: 
    secs: 0
    nsecs: 0
  frame_id: ''
axes: [0.0, 0.0, 0.13455736637115479, 0.13455736637115479, 0.0, 0.0, 0.0, 0.0]
buttons: []
---
header: 
  seq: 2611
  stamp: 
    secs: 0
    nsecs: 0
  frame_id: ''
axes: [0.0, 0.0, 0.13455736637115479, 0.13455736637115479, 0.0, 0.0, 0.0, 0.0]
buttons: []
---
header: 
  seq: 2612
  stamp: 
    secs: 0
    nsecs: 0
  frame_id: ''
axes: [0.0, 0.0, 0.13455736637115479, 0.13455736637115479, 0.0, 0.0, 0.0, 0.0]
buttons: []
---
header: 
  seq: 2613
  stamp: 
    secs: 0
    nsecs: 0
  frame_id: ''
axes: [0.0, 0.0, 0.13455736637115479, 0.13455736637115479, 0.0, 0.0, 0.0, 0.0]
buttons: []
---
header: 
  seq: 2614
  stamp: 
    secs: 0
    nsecs: 0
  frame_id: ''
axes: [0.0, 0.0, 0.13455736637115479, 0.13455736637115479, 0.0, 0.0, 0.0, 0.0]
buttons: []
---
header: 
  seq: 2615
  stamp: 
    secs: 0
    nsecs: 0
  frame_id: ''
axes: [0.0, 0.0, 0.13455736637115479, 0.13455736637115479, 0.0, 0.0, 0.0, 0.0]
buttons: []
---
header: 
  seq: 2616
  stamp: 
    secs: 0
    nsecs: 0
  frame_id: ''
axes: [0.0, 0.0, 0.13455665111541748, 0.13455665111541748, 0.0, 0.0, 0.0, 0.0]
buttons: []
---
header: 
  seq: 2617
  stamp: 
    secs: 0
    nsecs: 0
  frame_id: ''
axes: [0.0, 0.0, 0.13455450534820557, 0.13455450534820557, 0.0, 0.0, 0.0, 0.0]
buttons: []
---
header: 
  seq: 2618
  stamp: 
    secs: 0
    nsecs: 0
  frame_id: ''
axes: [0.0, 0.0, 0.13455450534820557, 0.13455450534820557, 0.0, 0.0, 0.0, 0.0]
buttons: []
---
header: 
  seq: 2619
  stamp: 
    secs: 0
    nsecs: 0
  frame_id: ''
axes: [0.0, 0.0, 0.13455450534820557, 0.13455450534820557, 0.0, 0.0, 0.0, 0.0]
buttons: []
---
header: 
  seq: 2620
  stamp: 
    secs: 0
    nsecs: 0
  frame_id: ''
axes: [0.0, 0.0, 0.13455450534820557, 0.13455450534820557, 0.0, 0.0, 0.0, 0.0]
buttons: []
---
header: 
  seq: 2621
  stamp: 
    secs: 0
    nsecs: 0
  frame_id: ''
axes: [0.0, 0.0, 0.13455450534820557, 0.13455450534820557, 0.0, 0.0, 0.0, 0.0]
buttons: []
---
header: 
  seq: 2622
  stamp: 
    secs: 0
    nsecs: 0
  frame_id: ''
axes: [0.0, 0.0, 0.13455450534820557, 0.13455450534820557, 0.0, 0.0, 0.0, 0.0]
buttons: []
---
header: 
  seq: 2623
  stamp: 
    secs: 0
    nsecs: 0
  frame_id: ''
axes: [0.0, 0.0, 0.13455450534820557, 0.13455450534820557, 0.0, 0.0, 0.0, 0.0]
buttons: []
---
header: 
  seq: 2624
  stamp: 
    secs: 0
    nsecs: 0
  frame_id: ''
axes: [0.0, 0.0, 0.13455450534820557, 0.13455450534820557, 0.0, 0.0, 0.0, 0.0]
buttons: []
---
header: 
  seq: 2625
  stamp: 
    secs: 0
    nsecs: 0
  frame_id: ''
axes: [0.0, 0.0, 0.13455140590667725, 0.13455140590667725, 0.0, 0.0, 0.0, 0.0]
buttons: []
---
header: 
  seq: 2626
  stamp: 
    secs: 0
    nsecs: 0
  frame_id: ''
axes: [0.0, 0.0, 0.1345508098602295, 0.1345508098602295, 0.0, 0.0, 0.0, 0.0]
buttons: []
---
header: 
  seq: 2627
  stamp: 
    secs: 0
    nsecs: 0
  frame_id: ''
axes: [0.0, 0.0, 0.13454878330230713, 0.13454878330230713, 0.0, 0.0, 0.0, 0.0]
buttons: []
---
header: 
  seq: 2628
  stamp: 
    secs: 0
    nsecs: 0
  frame_id: ''
axes: [0.0, 0.0, 0.13454878330230713, 0.13454878330230713, 0.0, 0.0, 0.0, 0.0]
buttons: []
---
header: 
  seq: 2629
  stamp: 
    secs: 0
    nsecs: 0
  frame_id: ''
axes: [0.0, 0.0, 0.13454878330230713, 0.13454878330230713, 0.0, 0.0, 0.0, 0.0]
buttons: []
---
header: 
  seq: 2630
  stamp: 
    secs: 0
    nsecs: 0
  frame_id: ''
axes: [0.0, 0.0, 0.13454878330230713, 0.13454878330230713, 0.0, 0.0, 0.0, 0.0]
buttons: []
---
header: 
  seq: 2631
  stamp: 
    secs: 0
    nsecs: 0
  frame_id: ''
axes: [0.0, 0.0, 0.13454878330230713, 0.13454878330230713, 0.0, 0.0, 0.0, 0.0]
buttons: []
---
header: 
  seq: 2632
  stamp: 
    secs: 0
    nsecs: 0
  frame_id: ''
axes: [0.0, 0.0, 0.13454878330230713, 0.13454878330230713, 0.0, 0.0, 0.0, 0.0]
buttons: []
---
header: 
  seq: 2633
  stamp: 
    secs: 0
    nsecs: 0
  frame_id: ''
axes: [0.0, 0.0, 0.13454878330230713, 0.13454878330230713, 0.0, 0.0, 0.0, 0.0]
buttons: []
---
header: 
  seq: 2634
  stamp: 
    secs: 0
    nsecs: 0
  frame_id: ''
axes: [0.0, 0.0, 0.13454878330230713, 0.13454878330230713, 0.0, 0.0, 0.0, 0.0]
buttons: []
---
header: 
  seq: 2635
  stamp: 
    secs: 0
    nsecs: 0
  frame_id: ''
axes: [0.0, 0.0, 0.1345531940460205, 0.1345531940460205, 0.0, 0.0, 0.0, 0.0]
buttons: []
---
header: 
  seq: 2636
  stamp: 
    secs: 0
    nsecs: 0
  frame_id: ''
axes: [0.0, 0.0, 0.1345510482788086, 0.1345510482788086, 0.0, 0.0, 0.0, 0.0]
buttons: []
---
header: 
  seq: 2637
  stamp: 
    secs: 0
    nsecs: 0
  frame_id: ''
axes: [0.0, 0.0, 0.13454890251159668, 0.13454890251159668, 0.0, 0.0, 0.0, 0.0]
buttons: []
---
header: 
  seq: 2638
  stamp: 
    secs: 0
    nsecs: 0
  frame_id: ''
axes: [0.0, 0.0, 0.13454890251159668, 0.13454890251159668, 0.0, 0.0, 0.0, 0.0]
buttons: []
---
header: 
  seq: 2639
  stamp: 
    secs: 0
    nsecs: 0
  frame_id: ''
axes: [0.0, 0.0, 0.13454890251159668, 0.13454890251159668, 0.0, 0.0, 0.0, 0.0]
buttons: []
---
header: 
  seq: 2640
  stamp: 
    secs: 0
    nsecs: 0
  frame_id: ''
axes: [0.0, 0.0, 0.13454890251159668, 0.13454890251159668, 0.0, 0.0, 0.0, 0.0]
buttons: []
---
header: 
  seq: 2641
  stamp: 
    secs: 0
    nsecs: 0
  frame_id: ''
axes: [0.0, 0.0, 0.13454890251159668, 0.13454890251159668, 0.0, 0.0, 0.0, 0.0]
buttons: []
---
header: 
  seq: 2642
  stamp: 
    secs: 0
    nsecs: 0
  frame_id: ''
axes: [0.0, 0.0, 0.13454890251159668, 0.13454890251159668, 0.0, 0.0, 0.0, 0.0]
buttons: []
---
header: 
  seq: 2643
  stamp: 
    secs: 0
    nsecs: 0
  frame_id: ''
axes: [0.0, 0.0, 0.13454890251159668, 0.13454890251159668, 0.0, 0.0, 0.0, 0.0]
buttons: []
---
header: 
  seq: 2644
  stamp: 
    secs: 0
    nsecs: 0
  frame_id: ''
axes: [0.0, 0.0, 0.13454890251159668, 0.13454890251159668, 0.0, 0.0, 0.0, 0.0]
buttons: []
---
header: 
  seq: 2645
  stamp: 
    secs: 0
    nsecs: 0
  frame_id: ''
axes: [0.0, 0.0, 0.13454890251159668, 0.13454890251159668, 0.0, 0.0, 0.0, 0.0]
buttons: []
---
header: 
  seq: 2646
  stamp: 
    secs: 0
    nsecs: 0
  frame_id: ''
axes: [0.0, 0.0, 0.13454890251159668, 0.13454890251159668, 0.0, 0.0, 0.0, 0.0]
buttons: []
---
header: 
  seq: 2647
  stamp: 
    secs: 0
    nsecs: 0
  frame_id: ''
axes: [0.0, 0.0, 0.13454890251159668, 0.13454890251159668, 0.0, 0.0, 0.0, 0.0]
buttons: []
---
header: 
  seq: 2648
  stamp: 
    secs: 0
    nsecs: 0
  frame_id: ''
axes: [0.0, 0.0, 0.1345531940460205, 0.1345531940460205, 0.0, 0.0, 0.0, 0.0]
buttons: []
---
header: 
  seq: 2649
  stamp: 
    secs: 0
    nsecs: 0
  frame_id: ''
axes: [0.0, 0.0, 0.1345531940460205, 0.1345531940460205, 0.0, 0.0, 0.0, 0.0]
buttons: []
---
header: 
  seq: 2650
  stamp: 
    secs: 0
    nsecs: 0
  frame_id: ''
axes: [0.0, 0.0, 0.1345531940460205, 0.1345531940460205, 0.0, 0.0, 0.0, 0.0]
buttons: []
---
header: 
  seq: 2651
  stamp: 
    secs: 0
    nsecs: 0
  frame_id: ''
axes: [0.0, 0.0, 0.1345531940460205, 0.1345531940460205, 0.0, 0.0, 0.0, 0.0]
buttons: []
---
header: 
  seq: 2652
  stamp: 
    secs: 0
    nsecs: 0
  frame_id: ''
axes: [0.0, 0.0, 0.1345531940460205, 0.1345531940460205, 0.0, 0.0, 0.0, 0.0]
buttons: []
---
header: 
  seq: 2653
  stamp: 
    secs: 0
    nsecs: 0
  frame_id: ''
axes: [0.0, 0.0, 0.1345531940460205, 0.1345531940460205, 0.0, 0.0, 0.0, 0.0]
buttons: []
---
header: 
  seq: 2654
  stamp: 
    secs: 0
    nsecs: 0
  frame_id: ''
axes: [0.0, 0.0, 0.1345531940460205, 0.1345531940460205, 0.0, 0.0, 0.0, 0.0]
buttons: []
---
header: 
  seq: 2655
  stamp: 
    secs: 0
    nsecs: 0
  frame_id: ''
axes: [0.0, 0.0, 0.13456273078918457, 0.13456273078918457, 0.0, 0.0, 0.0, 0.0]
buttons: []
---
header: 
  seq: 2656
  stamp: 
    secs: 0
    nsecs: 0
  frame_id: ''
axes: [0.0, 0.0, 0.13456082344055176, 0.13456082344055176, 0.0, 0.0, 0.0, 0.0]
buttons: []
---
header: 
  seq: 2657
  stamp: 
    secs: 0
    nsecs: 0
  frame_id: ''
axes: [0.0, 0.0, 0.1345587968826294, 0.1345587968826294, 0.0, 0.0, 0.0, 0.0]
buttons: []
---
header: 
  seq: 2658
  stamp: 
    secs: 0
    nsecs: 0
  frame_id: ''
axes: [0.0, 0.0, 0.1345587968826294, 0.1345587968826294, 0.0, 0.0, 0.0, 0.0]
buttons: []
---
header: 
  seq: 2659
  stamp: 
    secs: 0
    nsecs: 0
  frame_id: ''
axes: [0.0, 0.0, 0.1345587968826294, 0.1345587968826294, 0.0, 0.0, 0.0, 0.0]
buttons: []
---
header: 
  seq: 2660
  stamp: 
    secs: 0
    nsecs: 0
  frame_id: ''
axes: [0.0, 0.0, 0.1345587968826294, 0.1345587968826294, 0.0, 0.0, 0.0, 0.0]
buttons: []
---
header: 
  seq: 2661
  stamp: 
    secs: 0
    nsecs: 0
  frame_id: ''
axes: [0.0, 0.0, 0.1345587968826294, 0.1345587968826294, 0.0, 0.0, 0.0, 0.0]
buttons: []
---
header: 
  seq: 2662
  stamp: 
    secs: 0
    nsecs: 0
  frame_id: ''
axes: [0.0, 0.0, 0.1345587968826294, 0.1345587968826294, 0.0, 0.0, 0.0, 0.0]
buttons: []
---
header: 
  seq: 2663
  stamp: 
    secs: 0
    nsecs: 0
  frame_id: ''
axes: [0.0, 0.0, 0.1345587968826294, 0.1345587968826294, 0.0, 0.0, 0.0, 0.0]
buttons: []
---
header: 
  seq: 2664
  stamp: 
    secs: 0
    nsecs: 0
  frame_id: ''
axes: [0.0, 0.0, 0.1345531940460205, 0.1345531940460205, 0.0, 0.0, 0.0, 0.0]
buttons: []
---
header: 
  seq: 2665
  stamp: 
    secs: 0
    nsecs: 0
  frame_id: ''
axes: [0.0, 0.0, 0.1345512866973877, 0.1345512866973877, 0.0, 0.0, 0.0, 0.0]
buttons: []
---
header: 
  seq: 2666
  stamp: 
    secs: 0
    nsecs: 0
  frame_id: ''
axes: [0.0, 0.0, 0.13454926013946533, 0.13454926013946533, 0.0, 0.0, 0.0, 0.0]
buttons: []
---
header: 
  seq: 2667
  stamp: 
    secs: 0
    nsecs: 0
  frame_id: ''
axes: [0.0, 0.0, 0.13454580307006836, 0.13454580307006836, 0.0, 0.0, 0.0, 0.0]
buttons: []
---
header: 
  seq: 2668
  stamp: 
    secs: 0
    nsecs: 0
  frame_id: ''
axes: [0.0, 0.0, 0.13454580307006836, 0.13454580307006836, 0.0, 0.0, 0.0, 0.0]
buttons: []
---
header: 
  seq: 2669
  stamp: 
    secs: 0
    nsecs: 0
  frame_id: ''
axes: [0.0, 0.0, 0.13454580307006836, 0.13454580307006836, 0.0, 0.0, 0.0, 0.0]
buttons: []
---
header: 
  seq: 2670
  stamp: 
    secs: 0
    nsecs: 0
  frame_id: ''
axes: [0.0, 0.0, 0.13454580307006836, 0.13454580307006836, 0.0, 0.0, 0.0, 0.0]
buttons: []
---
header: 
  seq: 2671
  stamp: 
    secs: 0
    nsecs: 0
  frame_id: ''
axes: [0.0, 0.0, 0.13454580307006836, 0.13454580307006836, 0.0, 0.0, 0.0, 0.0]
buttons: []
---
header: 
  seq: 2672
  stamp: 
    secs: 0
    nsecs: 0
  frame_id: ''
axes: [0.0, 0.0, 0.13454580307006836, 0.13454580307006836, 0.0, 0.0, 0.0, 0.0]
buttons: []
---
header: 
  seq: 2673
  stamp: 
    secs: 0
    nsecs: 0
  frame_id: ''
axes: [0.0, 0.0, 0.13454580307006836, 0.13454580307006836, 0.0, 0.0, 0.0, 0.0]
buttons: []
---
header: 
  seq: 2674
  stamp: 
    secs: 0
    nsecs: 0
  frame_id: ''
axes: [0.0, 0.0, 0.13454580307006836, 0.13454580307006836, 0.0, 0.0, 0.0, 0.0]
buttons: []
---
header: 
  seq: 2675
  stamp: 
    secs: 0
    nsecs: 0
  frame_id: ''
axes: [0.0, 0.0, 0.13454580307006836, 0.13454580307006836, 0.0, 0.0, 0.0, 0.0]
buttons: []
---
header: 
  seq: 2676
  stamp: 
    secs: 0
    nsecs: 0
  frame_id: ''
axes: [0.0, 0.0, 0.13454580307006836, 0.13454580307006836, 0.0, 0.0, 0.0, 0.0]
buttons: []
---
header: 
  seq: 2677
  stamp: 
    secs: 0
    nsecs: 0
  frame_id: ''
axes: [0.0, 0.0, 0.1345522403717041, 0.1345522403717041, 0.0, 0.0, 0.0, 0.0]
buttons: []
---
header: 
  seq: 2678
  stamp: 
    secs: 0
    nsecs: 0
  frame_id: ''
axes: [0.0, 0.0, 0.1345522403717041, 0.1345522403717041, 0.0, 0.0, 0.0, 0.0]
buttons: []
---
header: 
  seq: 2679
  stamp: 
    secs: 0
    nsecs: 0
  frame_id: ''
axes: [0.0, 0.0, 0.1345522403717041, 0.1345522403717041, 0.0, 0.0, 0.0, 0.0]
buttons: []
---
header: 
  seq: 2680
  stamp: 
    secs: 0
    nsecs: 0
  frame_id: ''
axes: [0.0, 0.0, 0.1345522403717041, 0.1345522403717041, 0.0, 0.0, 0.0, 0.0]
buttons: []
---
header: 
  seq: 2681
  stamp: 
    secs: 0
    nsecs: 0
  frame_id: ''
axes: [0.0, 0.0, 0.1345522403717041, 0.1345522403717041, 0.0, 0.0, 0.0, 0.0]
buttons: []
---
header: 
  seq: 2682
  stamp: 
    secs: 0
    nsecs: 0
  frame_id: ''
axes: [0.0, 0.0, 0.1345522403717041, 0.1345522403717041, 0.0, 0.0, 0.0, 0.0]
buttons: []
---
header: 
  seq: 2683
  stamp: 
    secs: 0
    nsecs: 0
  frame_id: ''
axes: [0.0, 0.0, 0.1345522403717041, 0.1345522403717041, 0.0, 0.0, 0.0, 0.0]
buttons: []
---
header: 
  seq: 2684
  stamp: 
    secs: 0
    nsecs: 0
  frame_id: ''
axes: [0.0, 0.0, 0.1345522403717041, 0.1345522403717041, 0.0, 0.0, 0.0, 0.0]
buttons: []
---
header: 
  seq: 2685
  stamp: 
    secs: 0
    nsecs: 0
  frame_id: ''
axes: [0.0, 0.0, 0.1345522403717041, 0.1345522403717041, 0.0, 0.0, 0.0, 0.0]
buttons: []
---
header: 
  seq: 2686
  stamp: 
    secs: 0
    nsecs: 0
  frame_id: ''
axes: [0.0, 0.0, 0.1345597505569458, 0.1345597505569458, 0.0, 0.0, 0.0, 0.0]
buttons: []
---
header: 
  seq: 2687
  stamp: 
    secs: 0
    nsecs: 0
  frame_id: ''
axes: [0.0, 0.0, 0.1345580816268921, 0.1345580816268921, 0.0, 0.0, 0.0, 0.0]
buttons: []
---
header: 
  seq: 2688
  stamp: 
    secs: 0
    nsecs: 0
  frame_id: ''
axes: [0.0, 0.0, 0.1345580816268921, 0.1345580816268921, 0.0, 0.0, 0.0, 0.0]
buttons: []
---
header: 
  seq: 2689
  stamp: 
    secs: 0
    nsecs: 0
  frame_id: ''
axes: [0.0, 0.0, 0.1345580816268921, 0.1345580816268921, 0.0, 0.0, 0.0, 0.0]
buttons: []
---
header: 
  seq: 2690
  stamp: 
    secs: 0
    nsecs: 0
  frame_id: ''
axes: [0.0, 0.0, 0.1345580816268921, 0.1345580816268921, 0.0, 0.0, 0.0, 0.0]
buttons: []
---
header: 
  seq: 2691
  stamp: 
    secs: 0
    nsecs: 0
  frame_id: ''
axes: [0.0, 0.0, 0.1345580816268921, 0.1345580816268921, 0.0, 0.0, 0.0, 0.0]
buttons: []
---
header: 
  seq: 2692
  stamp: 
    secs: 0
    nsecs: 0
  frame_id: ''
axes: [0.0, 0.0, 0.1345580816268921, 0.1345580816268921, 0.0, 0.0, 0.0, 0.0]
buttons: []
---
header: 
  seq: 2693
  stamp: 
    secs: 0
    nsecs: 0
  frame_id: ''
axes: [0.0, 0.0, 0.1345580816268921, 0.1345580816268921, 0.0, 0.0, 0.0, 0.0]
buttons: []
---
header: 
  seq: 2694
  stamp: 
    secs: 0
    nsecs: 0
  frame_id: ''
axes: [0.0, 0.0, 0.1345580816268921, 0.1345580816268921, 0.0, 0.0, 0.0, 0.0]
buttons: []
---
header: 
  seq: 2695
  stamp: 
    secs: 0
    nsecs: 0
  frame_id: ''
axes: [0.0, 0.0, 0.13455629348754883, 0.13455629348754883, 0.0, 0.0, 0.0, 0.0]
buttons: []
---
header: 
  seq: 2696
  stamp: 
    secs: 0
    nsecs: 0
  frame_id: ''
axes: [0.0, 0.0, 0.1345527172088623, 0.1345527172088623, 0.0, 0.0, 0.0, 0.0]
buttons: []
---
header: 
  seq: 2697
  stamp: 
    secs: 0
    nsecs: 0
  frame_id: ''
axes: [0.0, 0.0, 0.13454926013946533, 0.13454926013946533, 0.0, 0.0, 0.0, 0.0]
buttons: []
---
header: 
  seq: 2698
  stamp: 
    secs: 0
    nsecs: 0
  frame_id: ''
axes: [0.0, 0.0, 0.13454926013946533, 0.13454926013946533, 0.0, 0.0, 0.0, 0.0]
buttons: []
---
header: 
  seq: 2699
  stamp: 
    secs: 0
    nsecs: 0
  frame_id: ''
axes: [0.0, 0.0, 0.13454926013946533, 0.13454926013946533, 0.0, 0.0, 0.0, 0.0]
buttons: []
---
header: 
  seq: 2700
  stamp: 
    secs: 0
    nsecs: 0
  frame_id: ''
axes: [0.0, 0.0, 0.13454926013946533, 0.13454926013946533, 0.0, 0.0, 0.0, 0.0]
buttons: []
---
header: 
  seq: 2701
  stamp: 
    secs: 0
    nsecs: 0
  frame_id: ''
axes: [0.0, 0.0, 0.13454926013946533, 0.13454926013946533, 0.0, 0.0, 0.0, 0.0]
buttons: []
---
header: 
  seq: 2702
  stamp: 
    secs: 0
    nsecs: 0
  frame_id: ''
axes: [0.0, 0.0, 0.13454926013946533, 0.13454926013946533, 0.0, 0.0, 0.0, 0.0]
buttons: []
---
header: 
  seq: 2703
  stamp: 
    secs: 0
    nsecs: 0
  frame_id: ''
axes: [0.0, 0.0, 0.13454926013946533, 0.13454926013946533, 0.0, 0.0, 0.0, 0.0]
buttons: []
---
header: 
  seq: 2704
  stamp: 
    secs: 0
    nsecs: 0
  frame_id: ''
axes: [0.0, 0.0, 0.13454926013946533, 0.13454926013946533, 0.0, 0.0, 0.0, 0.0]
buttons: []
---
header: 
  seq: 2705
  stamp: 
    secs: 0
    nsecs: 0
  frame_id: ''
axes: [0.0, 0.0, 0.13454782962799072, 0.13454782962799072, 0.0, 0.0, 0.0, 0.0]
buttons: []
---
header: 
  seq: 2706
  stamp: 
    secs: 0
    nsecs: 0
  frame_id: ''
axes: [0.0, 0.0, 0.13454985618591309, 0.13454985618591309, 0.0, 0.0, 0.0, 0.0]
buttons: []
---
header: 
  seq: 2707
  stamp: 
    secs: 0
    nsecs: 0
  frame_id: ''
axes: [0.0, 0.0, 0.13454806804656982, 0.13454806804656982, 0.0, 0.0, 0.0, 0.0]
buttons: []
---
header: 
  seq: 2708
  stamp: 
    secs: 0
    nsecs: 0
  frame_id: ''
axes: [0.0, 0.0, 0.13454806804656982, 0.13454806804656982, 0.0, 0.0, 0.0, 0.0]
buttons: []
---
header: 
  seq: 2709
  stamp: 
    secs: 0
    nsecs: 0
  frame_id: ''
axes: [0.0, 0.0, 0.13454806804656982, 0.13454806804656982, 0.0, 0.0, 0.0, 0.0]
buttons: []
---
header: 
  seq: 2710
  stamp: 
    secs: 0
    nsecs: 0
  frame_id: ''
axes: [0.0, 0.0, 0.13454806804656982, 0.13454806804656982, 0.0, 0.0, 0.0, 0.0]
buttons: []
---
header: 
  seq: 2711
  stamp: 
    secs: 0
    nsecs: 0
  frame_id: ''
axes: [0.0, 0.0, 0.13454806804656982, 0.13454806804656982, 0.0, 0.0, 0.0, 0.0]
buttons: []
---
header: 
  seq: 2712
  stamp: 
    secs: 0
    nsecs: 0
  frame_id: ''
axes: [0.0, 0.0, 0.13454806804656982, 0.13454806804656982, 0.0, 0.0, 0.0, 0.0]
buttons: []
---
header: 
  seq: 2713
  stamp: 
    secs: 0
    nsecs: 0
  frame_id: ''
axes: [0.0, 0.0, 0.13454806804656982, 0.13454806804656982, 0.0, 0.0, 0.0, 0.0]
buttons: []
---
header: 
  seq: 2714
  stamp: 
    secs: 0
    nsecs: 0
  frame_id: ''
axes: [0.0, 0.0, 0.13454806804656982, 0.13454806804656982, 0.0, 0.0, 0.0, 0.0]
buttons: []
---
header: 
  seq: 2715
  stamp: 
    secs: 0
    nsecs: 0
  frame_id: ''
axes: [0.0, 0.0, 0.13454806804656982, 0.13454806804656982, 0.0, 0.0, 0.0, 0.0]
buttons: []
---
header: 
  seq: 2716
  stamp: 
    secs: 0
    nsecs: 0
  frame_id: ''
axes: [0.0, 0.0, 0.1345529556274414, 0.1345529556274414, 0.0, 0.0, 0.0, 0.0]
buttons: []
---
header: 
  seq: 2717
  stamp: 
    secs: 0
    nsecs: 0
  frame_id: ''
axes: [0.0, 0.0, 0.13455140590667725, 0.13455140590667725, 0.0, 0.0, 0.0, 0.0]
buttons: []
---
header: 
  seq: 2718
  stamp: 
    secs: 0
    nsecs: 0
  frame_id: ''
axes: [0.0, 0.0, 0.13455140590667725, 0.13455140590667725, 0.0, 0.0, 0.0, 0.0]
buttons: []
---
header: 
  seq: 2719
  stamp: 
    secs: 0
    nsecs: 0
  frame_id: ''
axes: [0.0, 0.0, 0.13455140590667725, 0.13455140590667725, 0.0, 0.0, 0.0, 0.0]
buttons: []
---
header: 
  seq: 2720
  stamp: 
    secs: 0
    nsecs: 0
  frame_id: ''
axes: [0.0, 0.0, 0.13455140590667725, 0.13455140590667725, 0.0, 0.0, 0.0, 0.0]
buttons: []
---
header: 
  seq: 2721
  stamp: 
    secs: 0
    nsecs: 0
  frame_id: ''
axes: [0.0, 0.0, 0.13455140590667725, 0.13455140590667725, 0.0, 0.0, 0.0, 0.0]
buttons: []
---
header: 
  seq: 2722
  stamp: 
    secs: 0
    nsecs: 0
  frame_id: ''
axes: [0.0, 0.0, 0.13455140590667725, 0.13455140590667725, 0.0, 0.0, 0.0, 0.0]
buttons: []
---
header: 
  seq: 2723
  stamp: 
    secs: 0
    nsecs: 0
  frame_id: ''
axes: [0.0, 0.0, 0.13455140590667725, 0.13455140590667725, 0.0, 0.0, 0.0, 0.0]
buttons: []
---
header: 
  seq: 2724
  stamp: 
    secs: 0
    nsecs: 0
  frame_id: ''
axes: [0.0, 0.0, 0.13455140590667725, 0.13455140590667725, 0.0, 0.0, 0.0, 0.0]
buttons: []
---
header: 
  seq: 2725
  stamp: 
    secs: 0
    nsecs: 0
  frame_id: ''
axes: [0.0, 0.0, 0.13455402851104736, 0.13455402851104736, 0.0, 0.0, 0.0, 0.0]
buttons: []
---
header: 
  seq: 2726
  stamp: 
    secs: 0
    nsecs: 0
  frame_id: ''
axes: [0.0, 0.0, 0.13455462455749512, 0.13455462455749512, 0.0, 0.0, 0.0, 0.0]
buttons: []
---
header: 
  seq: 2727
  stamp: 
    secs: 0
    nsecs: 0
  frame_id: ''
axes: [0.0, 0.0, 0.1345531940460205, 0.1345531940460205, 0.0, 0.0, 0.0, 0.0]
buttons: []
---
header: 
  seq: 2728
  stamp: 
    secs: 0
    nsecs: 0
  frame_id: ''
axes: [0.0, 0.0, 0.1345531940460205, 0.1345531940460205, 0.0, 0.0, 0.0, 0.0]
buttons: []
---
header: 
  seq: 2729
  stamp: 
    secs: 0
    nsecs: 0
  frame_id: ''
axes: [0.0, 0.0, 0.1345531940460205, 0.1345531940460205, 0.0, 0.0, 0.0, 0.0]
buttons: []
---
header: 
  seq: 2730
  stamp: 
    secs: 0
    nsecs: 0
  frame_id: ''
axes: [0.0, 0.0, 0.1345531940460205, 0.1345531940460205, 0.0, 0.0, 0.0, 0.0]
buttons: []
---
header: 
  seq: 2731
  stamp: 
    secs: 0
    nsecs: 0
  frame_id: ''
axes: [0.0, 0.0, 0.1345531940460205, 0.1345531940460205, 0.0, 0.0, 0.0, 0.0]
buttons: []
---
header: 
  seq: 2732
  stamp: 
    secs: 0
    nsecs: 0
  frame_id: ''
axes: [0.0, 0.0, 0.1345531940460205, 0.1345531940460205, 0.0, 0.0, 0.0, 0.0]
buttons: []
---
header: 
  seq: 2733
  stamp: 
    secs: 0
    nsecs: 0
  frame_id: ''
axes: [0.0, 0.0, 0.13455164432525635, 0.13455164432525635, 0.0, 0.0, 0.0, 0.0]
buttons: []
---
header: 
  seq: 2734
  stamp: 
    secs: 0
    nsecs: 0
  frame_id: ''
axes: [0.0, 0.0, 0.1345508098602295, 0.1345508098602295, 0.0, 0.0, 0.0, 0.0]
buttons: []
---
header: 
  seq: 2735
  stamp: 
    secs: 0
    nsecs: 0
  frame_id: ''
axes: [0.0, 0.0, 0.13454866409301758, 0.13454866409301758, 0.0, 0.0, 0.0, 0.0]
buttons: []
---
header: 
  seq: 2736
  stamp: 
    secs: 0
    nsecs: 0
  frame_id: ''
axes: [0.0, 0.0, 0.13454866409301758, 0.13454866409301758, 0.0, 0.0, 0.0, 0.0]
buttons: []
---
header: 
  seq: 2737
  stamp: 
    secs: 0
    nsecs: 0
  frame_id: ''
axes: [0.0, 0.0, 0.13454711437225342, 0.13454711437225342, 0.0, 0.0, 0.0, 0.0]
buttons: []
---
header: 
  seq: 2738
  stamp: 
    secs: 0
    nsecs: 0
  frame_id: ''
axes: [0.0, 0.0, 0.13454556465148926, 0.13454556465148926, 0.0, 0.0, 0.0, 0.0]
buttons: []
---
header: 
  seq: 2739
  stamp: 
    secs: 0
    nsecs: 0
  frame_id: ''
axes: [0.0, 0.0, 0.13454556465148926, 0.13454556465148926, 0.0, 0.0, 0.0, 0.0]
buttons: []
---
header: 
  seq: 2740
  stamp: 
    secs: 0
    nsecs: 0
  frame_id: ''
axes: [0.0, 0.0, 0.13454556465148926, 0.13454556465148926, 0.0, 0.0, 0.0, 0.0]
buttons: []
---
header: 
  seq: 2741
  stamp: 
    secs: 0
    nsecs: 0
  frame_id: ''
axes: [0.0, 0.0, 0.13454556465148926, 0.13454556465148926, 0.0, 0.0, 0.0, 0.0]
buttons: []
---
header: 
  seq: 2742
  stamp: 
    secs: 0
    nsecs: 0
  frame_id: ''
axes: [0.0, 0.0, 0.13454556465148926, 0.13454556465148926, 0.0, 0.0, 0.0, 0.0]
buttons: []
---
header: 
  seq: 2743
  stamp: 
    secs: 0
    nsecs: 0
  frame_id: ''
axes: [0.0, 0.0, 0.13454556465148926, 0.13454556465148926, 0.0, 0.0, 0.0, 0.0]
buttons: []
---
header: 
  seq: 2744
  stamp: 
    secs: 0
    nsecs: 0
  frame_id: ''
axes: [0.0, 0.0, 0.13454556465148926, 0.13454556465148926, 0.0, 0.0, 0.0, 0.0]
buttons: []
---
header: 
  seq: 2745
  stamp: 
    secs: 0
    nsecs: 0
  frame_id: ''
axes: [0.0, 0.0, 0.13454937934875488, 0.13454937934875488, 0.0, 0.0, 0.0, 0.0]
buttons: []
---
header: 
  seq: 2746
  stamp: 
    secs: 0
    nsecs: 0
  frame_id: ''
axes: [0.0, 0.0, 0.1345531940460205, 0.1345531940460205, 0.0, 0.0, 0.0, 0.0]
buttons: []
---
header: 
  seq: 2747
  stamp: 
    secs: 0
    nsecs: 0
  frame_id: ''
axes: [0.0, 0.0, 0.13455188274383545, 0.13455188274383545, 0.0, 0.0, 0.0, 0.0]
buttons: []
---
header: 
  seq: 2748
  stamp: 
    secs: 0
    nsecs: 0
  frame_id: ''
axes: [0.0, 0.0, 0.13455188274383545, 0.13455188274383545, 0.0, 0.0, 0.0, 0.0]
buttons: []
---
header: 
  seq: 2749
  stamp: 
    secs: 0
    nsecs: 0
  frame_id: ''
axes: [0.0, 0.0, 0.13455188274383545, 0.13455188274383545, 0.0, 0.0, 0.0, 0.0]
buttons: []
---
header: 
  seq: 2750
  stamp: 
    secs: 0
    nsecs: 0
  frame_id: ''
axes: [0.0, 0.0, 0.13455188274383545, 0.13455188274383545, 0.0, 0.0, 0.0, 0.0]
buttons: []
---
header: 
  seq: 2751
  stamp: 
    secs: 0
    nsecs: 0
  frame_id: ''
axes: [0.0, 0.0, 0.13455188274383545, 0.13455188274383545, 0.0, 0.0, 0.0, 0.0]
buttons: []
---
header: 
  seq: 2752
  stamp: 
    secs: 0
    nsecs: 0
  frame_id: ''
axes: [0.0, 0.0, 0.13455188274383545, 0.13455188274383545, 0.0, 0.0, 0.0, 0.0]
buttons: []
---
header: 
  seq: 2753
  stamp: 
    secs: 0
    nsecs: 0
  frame_id: ''
axes: [0.0, 0.0, 0.13455188274383545, 0.13455188274383545, 0.0, 0.0, 0.0, 0.0]
buttons: []
---
header: 
  seq: 2754
  stamp: 
    secs: 0
    nsecs: 0
  frame_id: ''
axes: [0.0, 0.0, 0.13455188274383545, 0.13455188274383545, 0.0, 0.0, 0.0, 0.0]
buttons: []
---
header: 
  seq: 2755
  stamp: 
    secs: 0
    nsecs: 0
  frame_id: ''
axes: [0.0, 0.0, 0.13455188274383545, 0.13455188274383545, 0.0, 0.0, 0.0, 0.0]
buttons: []
---
header: 
  seq: 2756
  stamp: 
    secs: 0
    nsecs: 0
  frame_id: ''
axes: [0.0, 0.0, 0.13455188274383545, 0.13455188274383545, 0.0, 0.0, 0.0, 0.0]
buttons: []
---
header: 
  seq: 2757
  stamp: 
    secs: 0
    nsecs: 0
  frame_id: ''
axes: [0.0, 0.0, 0.1345527172088623, 0.1345527172088623, 0.0, 0.0, 0.0, 0.0]
buttons: []
---
header: 
  seq: 2758
  stamp: 
    secs: 0
    nsecs: 0
  frame_id: ''
axes: [0.0, 0.0, 0.1345527172088623, 0.1345527172088623, 0.0, 0.0, 0.0, 0.0]
buttons: []
---
header: 
  seq: 2759
  stamp: 
    secs: 0
    nsecs: 0
  frame_id: ''
axes: [0.0, 0.0, 0.1345527172088623, 0.1345527172088623, 0.0, 0.0, 0.0, 0.0]
buttons: []
---
header: 
  seq: 2760
  stamp: 
    secs: 0
    nsecs: 0
  frame_id: ''
axes: [0.0, 0.0, 0.1345527172088623, 0.1345527172088623, 0.0, 0.0, 0.0, 0.0]
buttons: []
---
header: 
  seq: 2761
  stamp: 
    secs: 0
    nsecs: 0
  frame_id: ''
axes: [0.0, 0.0, 0.1345527172088623, 0.1345527172088623, 0.0, 0.0, 0.0, 0.0]
buttons: []
---
header: 
  seq: 2762
  stamp: 
    secs: 0
    nsecs: 0
  frame_id: ''
axes: [0.0, 0.0, 0.1345527172088623, 0.1345527172088623, 0.0, 0.0, 0.0, 0.0]
buttons: []
---
header: 
  seq: 2763
  stamp: 
    secs: 0
    nsecs: 0
  frame_id: ''
axes: [0.0, 0.0, 0.1345527172088623, 0.1345527172088623, 0.0, 0.0, 0.0, 0.0]
buttons: []
---
header: 
  seq: 2764
  stamp: 
    secs: 0
    nsecs: 0
  frame_id: ''
axes: [0.0, 0.0, 0.1345527172088623, 0.1345527172088623, 0.0, 0.0, 0.0, 0.0]
buttons: []
---
header: 
  seq: 2765
  stamp: 
    secs: 0
    nsecs: 0
  frame_id: ''
axes: [0.0, 0.0, 0.13455188274383545, 0.13455188274383545, 0.0, 0.0, 0.0, 0.0]
buttons: []
---
header: 
  seq: 2766
  stamp: 
    secs: 0
    nsecs: 0
  frame_id: ''
axes: [0.0, 0.0, 0.1345512866973877, 0.1345512866973877, 0.0, 0.0, 0.0, 0.0]
buttons: []
---
header: 
  seq: 2767
  stamp: 
    secs: 0
    nsecs: 0
  frame_id: ''
axes: [0.0, 0.0, 0.13454985618591309, 0.13454985618591309, 0.0, 0.0, 0.0, 0.0]
buttons: []
---
header: 
  seq: 2768
  stamp: 
    secs: 0
    nsecs: 0
  frame_id: ''
axes: [0.0, 0.0, 0.13454985618591309, 0.13454985618591309, 0.0, 0.0, 0.0, 0.0]
buttons: []
---
header: 
  seq: 2769
  stamp: 
    secs: 0
    nsecs: 0
  frame_id: ''
axes: [0.0, 0.0, 0.13454985618591309, 0.13454985618591309, 0.0, 0.0, 0.0, 0.0]
buttons: []
---
header: 
  seq: 2770
  stamp: 
    secs: 0
    nsecs: 0
  frame_id: ''
axes: [0.0, 0.0, 0.13454985618591309, 0.13454985618591309, 0.0, 0.0, 0.0, 0.0]
buttons: []
---
header: 
  seq: 2771
  stamp: 
    secs: 0
    nsecs: 0
  frame_id: ''
axes: [0.0, 0.0, 0.13454985618591309, 0.13454985618591309, 0.0, 0.0, 0.0, 0.0]
buttons: []
---
header: 
  seq: 2772
  stamp: 
    secs: 0
    nsecs: 0
  frame_id: ''
axes: [0.0, 0.0, 0.13454985618591309, 0.13454985618591309, 0.0, 0.0, 0.0, 0.0]
buttons: []
---
header: 
  seq: 2773
  stamp: 
    secs: 0
    nsecs: 0
  frame_id: ''
axes: [0.0, 0.0, 0.13454985618591309, 0.13454985618591309, 0.0, 0.0, 0.0, 0.0]
buttons: []
---
header: 
  seq: 2774
  stamp: 
    secs: 0
    nsecs: 0
  frame_id: ''
axes: [0.0, 0.0, 0.13454985618591309, 0.13454985618591309, 0.0, 0.0, 0.0, 0.0]
buttons: []
---
header: 
  seq: 2775
  stamp: 
    secs: 0
    nsecs: 0
  frame_id: ''
axes: [0.0, 0.0, 0.1345510482788086, 0.1345510482788086, 0.0, 0.0, 0.0, 0.0]
buttons: []
---
header: 
  seq: 2776
  stamp: 
    secs: 0
    nsecs: 0
  frame_id: ''
axes: [0.0, 0.0, 0.13454985618591309, 0.13454985618591309, 0.0, 0.0, 0.0, 0.0]
buttons: []
---
header: 
  seq: 2777
  stamp: 
    secs: 0
    nsecs: 0
  frame_id: ''
axes: [0.0, 0.0, 0.13454842567443848, 0.13454842567443848, 0.0, 0.0, 0.0, 0.0]
buttons: []
---
header: 
  seq: 2778
  stamp: 
    secs: 0
    nsecs: 0
  frame_id: ''
axes: [0.0, 0.0, 0.13454842567443848, 0.13454842567443848, 0.0, 0.0, 0.0, 0.0]
buttons: []
---
header: 
  seq: 2779
  stamp: 
    secs: 0
    nsecs: 0
  frame_id: ''
axes: [0.0, 0.0, 0.13454842567443848, 0.13454842567443848, 0.0, 0.0, 0.0, 0.0]
buttons: []
---
header: 
  seq: 2780
  stamp: 
    secs: 0
    nsecs: 0
  frame_id: ''
axes: [0.0, 0.0, 0.13454842567443848, 0.13454842567443848, 0.0, 0.0, 0.0, 0.0]
buttons: []
---
header: 
  seq: 2781
  stamp: 
    secs: 0
    nsecs: 0
  frame_id: ''
axes: [0.0, 0.0, 0.13454842567443848, 0.13454842567443848, 0.0, 0.0, 0.0, 0.0]
buttons: []
---
header: 
  seq: 2782
  stamp: 
    secs: 0
    nsecs: 0
  frame_id: ''
axes: [0.0, 0.0, 0.13454842567443848, 0.13454842567443848, 0.0, 0.0, 0.0, 0.0]
buttons: []
---
header: 
  seq: 2783
  stamp: 
    secs: 0
    nsecs: 0
  frame_id: ''
axes: [0.0, 0.0, 0.13454842567443848, 0.13454842567443848, 0.0, 0.0, 0.0, 0.0]
buttons: []
---
header: 
  seq: 2784
  stamp: 
    secs: 0
    nsecs: 0
  frame_id: ''
axes: [0.0, 0.0, 0.13454842567443848, 0.13454842567443848, 0.0, 0.0, 0.0, 0.0]
buttons: []
---
header: 
  seq: 2785
  stamp: 
    secs: 0
    nsecs: 0
  frame_id: ''
